[
  {
    "date": "1/1/2015",
    "Title": "Trinity College",
    "Latitude": 41.745167,
    "Longitude": -72.69263
  },
  {
    "date": "1/2/2015",
    "Title": "Wesleyan University",
    "Latitude": 41.55709,
    "Longitude": -72.65691
  },
  {
    "date": "1/3/2015",
    "Title": "Connecticut College",
    "Latitude": 41.381435,
    "Longitude": -72.10469
  },
  {
    "date": "1/4/2015",
    "Title": "Yale University",
    "Latitude": 41.309155,
    "Longitude": -72.92635
  },
  {
    "date": "1/5/2015",
    "Title": "University of Connecticut-Storrs",
    "Latitude": 41.80665,
    "Longitude": -72.25352
  },
  {
    "date": "1/6/2015",
    "Title": "Capital Community College",
    "Latitude": 41.69861,
    "Longitude": -72.72414
  },
  {
    "date": "1/7/2015",
    "Title": "Dinosaur State Park",
    "Latitude": 41.652546,
    "Longitude": -72.65743
  },
  {
    "date": "1/8/2015",
    "Title": "Hammonasset State Park",
    "Latitude": 41.273247,
    "Longitude": -72.56934
  },
  {
    "date": "1/9/2015",
    "Title": "State Capitol Building",
    "Latitude": 41.762848,
    "Longitude": -72.68245
  }
]
